{"type": "FeatureCollection", "features": [{"type": "Feature", "geometry": {"type": "Point", "coordinates": [-122.05368, 36.977638]}, "properties": {"similar_stop_name": "Bay & High (UCSC - Main Gate)", "similar_stop_id": "1341"}}, {"type": "Feature", "geometry": {"type": "Point", "coordinates": [-122.0520175, 36.9814645]}, "properties": {"similar_stop_name": "Coolidge Dr & Hagar Ct  (UCSC - Lower Campus)", "similar_stop_id": "1342"}}, {"type": "Feature", "geometry": {"type": "Point", "coordinates": [-122.06381999999999, 36.983231]}, "properties": {"similar_stop_name": "Empire Grade (UCSC - Arboretum)", "similar_stop_id": "1385"}}, {"type": "Feature", "geometry": {"type": "Point", "coordinates": [-122.0547755, 36.991295]}, "properties": {"similar_stop_name": "Hagar Dr (UCSC - East Remote Parking)", "similar_stop_id": "1501"}}, {"type": "Feature", "geometry": {"type": "Point", "coordinates": [-122.06664649999999, 36.9902725]}, "properties": {"similar_stop_name": "Heller Dr (UCSC - Oakes College)", "similar_stop_id": "1505"}}, {"type": "Feature", "geometry": {"type": "Point", "coordinates": [-122.0644455, 36.999247]}, "properties": {"similar_stop_name": "Heller Dr & McLaughlin Dr (UCSC - Kresge College)", "similar_stop_id": "1509"}}, {"type": "Feature", "geometry": {"type": "Point", "coordinates": [-122.062252, 36.999914]}, "properties": {"similar_stop_name": "McLaughlin Dr (UCSC - Science Hill)", "similar_stop_id": "1615"}}, {"type": "Feature", "geometry": {"type": "Point", "coordinates": [-122.058315, 36.99984]}, "properties": {"similar_stop_name": "McLaughlin Dr (UCSC - College 9 & 10 / Health Ctr)", "similar_stop_id": "1616"}}, {"type": "Feature", "geometry": {"type": "Point", "coordinates": [-122.055176, 36.999008]}, "properties": {"similar_stop_name": "McLaughlin Dr (UCSC - Crown & Merrill College)", "similar_stop_id": "1617"}}, {"type": "Feature", "geometry": {"type": "Point", "coordinates": [-122.055511, 36.994263]}, "properties": {"similar_stop_name": "Hagar Dr (UCSC - East Field House)", "similar_stop_id": "2101"}}, {"type": "Feature", "geometry": {"type": "Point", "coordinates": [-122.0552365, 36.99708]}, "properties": {"similar_stop_name": "Hagar Dr (UCSC - Bookstore, Cowell & Stevenson)", "similar_stop_id": "2102"}}, {"type": "Feature", "geometry": {"type": "Point", "coordinates": [-122.054306, 36.977322]}, "properties": {"similar_stop_name": "High & Bay Dr (UCSC - Main Gate)", "similar_stop_id": "2375"}}, {"type": "Feature", "geometry": {"type": "Point", "coordinates": [-122.0650255, 36.992898999999994]}, "properties": {"similar_stop_name": "Heller Dr (UCSC - Rachel Carson College & Porter)", "similar_stop_id": "2448"}}, {"type": "Feature", "geometry": {"type": "Point", "coordinates": [-122.066803, 36.991791]}, "properties": {"similar_stop_name": "Heller Dr (UCSC - Family Student Housing)", "similar_stop_id": "2516"}}, {"type": "Feature", "geometry": {"type": "Point", "coordinates": [-122.05354700000001, 36.985727]}, "properties": {"similar_stop_name": "Hagar Dr & Village Rd (UCSC - The Farm)", "similar_stop_id": "2669"}}, {"type": "Feature", "geometry": {"type": "Point", "coordinates": [-122.063583, 36.996708]}, "properties": {"similar_stop_name": "Heller Dr (UCSC - Kerr Hall)", "similar_stop_id": "2672"}}, {"type": "Feature", "geometry": {"type": "Point", "coordinates": [-122.057823, 36.978645]}, "properties": {"similar_stop_name": "High & Western Dr", "similar_stop_id": "1510"}}, {"type": "Feature", "geometry": {"type": "Point", "coordinates": [-122.057732, 36.978813]}, "properties": {"similar_stop_name": "High & Western", "similar_stop_id": "2374"}}, {"type": "Feature", "geometry": {"type": "Point", "coordinates": [-122.059326, 36.979889]}, "properties": {"similar_stop_name": "High & Tosca Terrace", "similar_stop_id": "2739"}}, {"type": "Feature", "geometry": {"type": "Point", "coordinates": [-122.052148539679, 36.9907781626465]}, "properties": {"similar_stop_name": "East Remote Interior", "similar_stop_id": "100"}}, {"type": "Feature", "geometry": {"type": "Point", "coordinates": [-122.064741988544, 36.9885928987961]}, "properties": {"similar_stop_name": "West Remote Interior", "similar_stop_id": "101"}}]}