{"type": "FeatureCollection", "features": [{"type": "Feature", "geometry": {"type": "Point", "coordinates": [-122.05368, 36.977638]}, "properties": {"stop_id": "1341", "stop_name": "Bay & High (UCSC - Main Gate)", "route_ids": ["LOOP", "UC"]}}, {"type": "Feature", "geometry": {"type": "Point", "coordinates": [-122.051926, 36.981369]}, "properties": {"stop_id": "1342", "stop_name": "Coolidge Dr & Hagar Ct  (UCSC - Lower Campus)", "route_ids": ["LOOP", "UC"]}}, {"type": "Feature", "geometry": {"type": "Point", "coordinates": [-122.062706, 36.982777]}, "properties": {"stop_id": "1385", "stop_name": "Empire Grade (UCSC - Arboretum)", "route_ids": ["LOOP"]}}, {"type": "Feature", "geometry": {"type": "Point", "coordinates": [-122.054665, 36.991314]}, "properties": {"stop_id": "1501", "stop_name": "Hagar Dr (UCSC - East Remote Parking)", "route_ids": ["LOOP", "UC"]}}, {"type": "Feature", "geometry": {"type": "Point", "coordinates": [-122.0672, 36.989944]}, "properties": {"stop_id": "1505", "stop_name": "Heller Dr (UCSC - Oakes College)", "route_ids": ["LOOP", "UC"]}}, {"type": "Feature", "geometry": {"type": "Point", "coordinates": [-122.064552, 36.999287]}, "properties": {"stop_id": "1509", "stop_name": "Heller Dr & McLaughlin Dr (UCSC - Kresge College)", "route_ids": ["LOOP", "UC"]}}, {"type": "Feature", "geometry": {"type": "Point", "coordinates": [-122.062332, 36.999973]}, "properties": {"stop_id": "1615", "stop_name": "McLaughlin Dr (UCSC - Science Hill)", "route_ids": ["LOOP", "UC"]}}, {"type": "Feature", "geometry": {"type": "Point", "coordinates": [-122.058319, 36.999924]}, "properties": {"stop_id": "1616", "stop_name": "McLaughlin Dr (UCSC - College 9 & 10 / Health Ctr)", "route_ids": ["LOOP", "UC"]}}, {"type": "Feature", "geometry": {"type": "Point", "coordinates": [-122.055176, 36.999008]}, "properties": {"stop_id": "1617", "stop_name": "McLaughlin Dr (UCSC - Crown & Merrill College)", "route_ids": ["LOOP", "UC"]}}, {"type": "Feature", "geometry": {"type": "Point", "coordinates": [-122.055511, 36.994263]}, "properties": {"stop_id": "2101", "stop_name": "Hagar Dr (UCSC - East Field House)", "route_ids": ["LOOP", "UC"]}}, {"type": "Feature", "geometry": {"type": "Point", "coordinates": [-122.055061, 36.997498]}, "properties": {"stop_id": "2102", "stop_name": "Hagar Dr (UCSC - Bookstore, Cowell & Stevenson)", "route_ids": ["LOOP", "UC"]}}, {"type": "Feature", "geometry": {"type": "Point", "coordinates": [-122.064934, 36.983685]}, "properties": {"stop_id": "2328", "stop_name": "Empire Grade (UCSC - Arboretum)", "route_ids": ["LOOP", "UC"]}}, {"type": "Feature", "geometry": {"type": "Point", "coordinates": [-122.054306, 36.977322]}, "properties": {"stop_id": "2375", "stop_name": "High & Bay Dr (UCSC - Main Gate)", "route_ids": ["LOOP"]}}, {"type": "Feature", "geometry": {"type": "Point", "coordinates": [-122.065201, 36.992996]}, "properties": {"stop_id": "2448", "stop_name": "Heller Dr (UCSC - Rachel Carson College & Porter)", "route_ids": ["LOOP", "UC"]}}, {"type": "Feature", "geometry": {"type": "Point", "coordinates": [-122.066803, 36.991791]}, "properties": {"stop_id": "2516", "stop_name": "Heller Dr (UCSC - Family Student Housing)", "route_ids": ["LOOP", "UC"]}}, {"type": "Feature", "geometry": {"type": "Point", "coordinates": [-122.053543, 36.985916]}, "properties": {"stop_id": "2669", "stop_name": "Hagar Dr & Village Rd (UCSC - The Farm)", "route_ids": ["LOOP", "UC"]}}, {"type": "Feature", "geometry": {"type": "Point", "coordinates": [-122.066093, 36.990601]}, "properties": {"stop_id": "2670", "stop_name": "Heller Dr (UCSC - Oakes College)", "route_ids": ["LOOP", "UC"]}}, {"type": "Feature", "geometry": {"type": "Point", "coordinates": [-122.06485, 36.992802]}, "properties": {"stop_id": "2671", "stop_name": "Heller Dr (UCSC - Rachel Carson College & Porter)", "route_ids": ["LOOP", "UC"]}}, {"type": "Feature", "geometry": {"type": "Point", "coordinates": [-122.063583, 36.996708]}, "properties": {"stop_id": "2672", "stop_name": "Heller Dr (UCSC - Kerr Hall)", "route_ids": ["LOOP", "UC"]}}, {"type": "Feature", "geometry": {"type": "Point", "coordinates": [-122.064339, 36.999207]}, "properties": {"stop_id": "2673", "stop_name": "Heller Dr & McLaughlin Dr (UCSC - Kresge College)", "route_ids": ["LOOP", "UC"]}}, {"type": "Feature", "geometry": {"type": "Point", "coordinates": [-122.062172, 36.999855]}, "properties": {"stop_id": "2674", "stop_name": "McLaughlin Dr (UCSC - Science Hill)", "route_ids": ["LOOP", "UC"]}}, {"type": "Feature", "geometry": {"type": "Point", "coordinates": [-122.058311, 36.999756]}, "properties": {"stop_id": "2675", "stop_name": "McLaughlin Dr (UCSC - College 9 & 10 / Health Ctr)", "route_ids": ["LOOP", "UC"]}}, {"type": "Feature", "geometry": {"type": "Point", "coordinates": [-122.055412, 36.996662]}, "properties": {"stop_id": "2676", "stop_name": "Hagar Dr (UCSC - Bookstore, Cowell & Stevenson)", "route_ids": ["LOOP", "UC"]}}, {"type": "Feature", "geometry": {"type": "Point", "coordinates": [-122.054886, 36.991276]}, "properties": {"stop_id": "2677", "stop_name": "Hagar Dr (UCSC - East Remote Parking)", "route_ids": ["LOOP", "UC"]}}, {"type": "Feature", "geometry": {"type": "Point", "coordinates": [-122.053551, 36.985538]}, "properties": {"stop_id": "2678", "stop_name": "Hagar Dr & Village Rd (UCSC - The Farm)", "route_ids": ["LOOP", "UC"]}}, {"type": "Feature", "geometry": {"type": "Point", "coordinates": [-122.052109, 36.98156]}, "properties": {"stop_id": "2679", "stop_name": "Coolidge Dr & Hagar Ct  (UCSC - Lower Campus)", "route_ids": ["LOOP", "UC"]}}, {"type": "Feature", "geometry": {"type": "Point", "coordinates": [-122.057823, 36.978645]}, "properties": {"stop_id": "1510", "stop_name": "High & Western Dr", "route_ids": ["LOOP", "UC"]}}, {"type": "Feature", "geometry": {"type": "Point", "coordinates": [-122.057732, 36.978813]}, "properties": {"stop_id": "2374", "stop_name": "High & Western", "route_ids": ["LOOP"]}}, {"type": "Feature", "geometry": {"type": "Point", "coordinates": [-122.059326, 36.979889]}, "properties": {"stop_id": "2739", "stop_name": "High & Tosca Terrace", "route_ids": ["LOOP", "UC"]}}, {"type": "Feature", "geometry": {"type": "Point", "coordinates": [-122.052148539679, 36.9907781626465]}, "properties": {"stop_id": "100", "stop_name": "East Remote Interior", "route_ids": ["LOOP", "UC"]}}, {"type": "Feature", "geometry": {"type": "Point", "coordinates": [-122.064741988544, 36.9885928987961]}, "properties": {"stop_id": "101", "stop_name": "West Remote Interior", "route_ids": ["LOOP", "UC"]}}]}